{
  "type": "FeatureCollection",
  "name": "landmarks",
  "_README": "定点地标图层：白底水彩插画 → 运行时抠白底成免框透明标志，立在坐标上。img 指向 illustrations/ 下的图；缺图自动跳过。type/relation 备用于后续 LOD/与书目联动。",
  "features": [
    { "type": "Feature", "geometry": { "type": "Point", "coordinates": [116.0167, 40.3556] }, "properties": { "id": "changcheng", "name": "长城", "type": "古迹", "relation": "边塞诗·中国史", "img": "changcheng.png" } },
    { "type": "Feature", "geometry": { "type": "Point", "coordinates": [116.3972, 39.9163] }, "properties": { "id": "gugong", "name": "故宫", "type": "城市地标", "relation": "明清宫廷", "img": "gugong.png" } },
    { "type": "Feature", "geometry": { "type": "Point", "coordinates": [109.2785, 34.3853] }, "properties": { "id": "bingmayong", "name": "兵马俑", "type": "古迹", "relation": "秦代", "img": "bingmayong.png" } },
    { "type": "Feature", "geometry": { "type": "Point", "coordinates": [91.1170, 29.6558] }, "properties": { "id": "budala", "name": "布达拉宫", "type": "宗教", "relation": "藏文化", "img": "budala.png" } },
    { "type": "Feature", "geometry": { "type": "Point", "coordinates": [138.7274, 35.3606] }, "properties": { "id": "fushi", "name": "富士山", "type": "自然", "relation": "和歌·俳句·浮世绘", "img": "fushi.png" } },
    { "type": "Feature", "geometry": { "type": "Point", "coordinates": [135.7850, 34.9949] }, "properties": { "id": "qingshuisi", "name": "清水寺", "type": "宗教", "relation": "平安文化·源氏物语", "img": "qingshuisi.png" } },
    { "type": "Feature", "geometry": { "type": "Point", "coordinates": [139.7967, 35.7148] }, "properties": { "id": "qiancaosi", "name": "浅草寺", "type": "宗教", "relation": "江户—东京", "img": "qiancaosi.png" } },
    { "type": "Feature", "geometry": { "type": "Point", "coordinates": [78.0421, 27.1751] }, "properties": { "id": "tajmahal", "name": "泰姬陵", "type": "古迹", "relation": "莫卧儿·爱情象征", "img": "tajmahal.png" } },
    { "type": "Feature", "geometry": { "type": "Point", "coordinates": [103.8670, 13.4125] }, "properties": { "id": "angkor", "name": "吴哥窟", "type": "古迹", "relation": "高棉文明", "img": "angkor.png" } },
    { "type": "Feature", "geometry": { "type": "Point", "coordinates": [110.2038, -7.6079] }, "properties": { "id": "borobudur", "name": "婆罗浮屠", "type": "宗教", "relation": "佛教遗产", "img": "borobudur.png" } },
    { "type": "Feature", "geometry": { "type": "Point", "coordinates": [31.1342, 29.9792] }, "properties": { "id": "pyramids", "name": "吉萨金字塔", "type": "古迹", "relation": "古埃及·亡灵书", "img": "pyramids.png" } },
    { "type": "Feature", "geometry": { "type": "Point", "coordinates": [32.6573, 25.7188] }, "properties": { "id": "karnak", "name": "卡尔纳克神庙", "type": "古迹", "relation": "古埃及", "img": "karnak.png" } },
    { "type": "Feature", "geometry": { "type": "Point", "coordinates": [35.4444, 30.3285] }, "properties": { "id": "petra", "name": "佩特拉", "type": "古迹", "relation": "纳巴泰文明", "img": "petra.png" } },
    { "type": "Feature", "geometry": { "type": "Point", "coordinates": [35.2354, 31.7780] }, "properties": { "id": "jerusalem", "name": "耶路撒冷老城", "type": "宗教", "relation": "三教圣城·耶路撒冷三千年", "img": "jerusalem.png" } },
    { "type": "Feature", "geometry": { "type": "Point", "coordinates": [52.8916, 29.9355] }, "properties": { "id": "persepolis", "name": "波斯波利斯", "type": "遗址", "relation": "波斯帝国·一千零一夜", "img": "persepolis.png" } },
    { "type": "Feature", "geometry": { "type": "Point", "coordinates": [37.3556, -3.0674] }, "properties": { "id": "kilimanjaro", "name": "乞力马扎罗山", "type": "自然", "relation": "海明威·乞力马扎罗的雪", "img": "kilimanjaro.png" } },
    { "type": "Feature", "geometry": { "type": "Point", "coordinates": [-3.0026, 16.7666] }, "properties": { "id": "timbuktu", "name": "廷巴克图", "type": "城市地标", "relation": "学术与手稿之城", "img": "timbuktu.png" } },
    { "type": "Feature", "geometry": { "type": "Point", "coordinates": [30.9344, -20.2674] }, "properties": { "id": "greatzimbabwe", "name": "大津巴布韦遗址", "type": "遗址", "relation": "非洲古文明", "img": "greatzimbabwe.png" } },
    { "type": "Feature", "geometry": { "type": "Point", "coordinates": [25.8567, -17.9243] }, "properties": { "id": "victoriafalls", "name": "维多利亚瀑布", "type": "自然", "relation": "", "img": "victoriafalls.png" } },
    { "type": "Feature", "geometry": { "type": "Point", "coordinates": [18.4097, -33.9628] }, "properties": { "id": "tablemountain", "name": "桌山", "type": "自然", "relation": "", "img": "tablemountain.png" } },
    { "type": "Feature", "geometry": { "type": "Point", "coordinates": [2.2945, 48.8584] }, "properties": { "id": "eiffel", "name": "埃菲尔铁塔", "type": "城市地标", "relation": "约翰·克里斯朵夫", "img": "eiffel.png" } },
    { "type": "Feature", "geometry": { "type": "Point", "coordinates": [2.3499, 48.8530] }, "properties": { "id": "notredame", "name": "巴黎圣母院", "type": "宗教", "relation": "雨果·巴黎圣母院", "img": "notredame.png" } },
    { "type": "Feature", "geometry": { "type": "Point", "coordinates": [-0.1246, 51.5007] }, "properties": { "id": "bigben", "name": "大本钟·威斯敏斯特", "type": "城市地标", "relation": "英伦文学", "img": "bigben.png" } },
    { "type": "Feature", "geometry": { "type": "Point", "coordinates": [-1.8262, 51.1789] }, "properties": { "id": "stonehenge", "name": "巨石阵", "type": "遗址", "relation": "凯尔特·神秘传说", "img": "stonehenge.png" } },
    { "type": "Feature", "geometry": { "type": "Point", "coordinates": [12.4924, 41.8902] }, "properties": { "id": "colosseum", "name": "罗马斗兽场", "type": "古迹", "relation": "古罗马", "img": "colosseum.png" } },
    { "type": "Feature", "geometry": { "type": "Point", "coordinates": [10.3966, 43.7230] }, "properties": { "id": "pisa", "name": "比萨斜塔", "type": "城市地标", "relation": "", "img": "pisa.png" } },
    { "type": "Feature", "geometry": { "type": "Point", "coordinates": [12.3388, 45.4343] }, "properties": { "id": "sanmarco", "name": "圣马可广场", "type": "城市地标", "relation": "威尼斯商人·魂断威尼斯", "img": "sanmarco.png" } },
    { "type": "Feature", "geometry": { "type": "Point", "coordinates": [12.4534, 41.9022] }, "properties": { "id": "stpeter", "name": "圣彼得大教堂", "type": "宗教", "relation": "", "img": "stpeter.png" } },
    { "type": "Feature", "geometry": { "type": "Point", "coordinates": [23.7257, 37.9715] }, "properties": { "id": "acropolis", "name": "雅典卫城", "type": "古迹", "relation": "古希腊·荷马史诗", "img": "acropolis.png" } },
    { "type": "Feature", "geometry": { "type": "Point", "coordinates": [2.1744, 41.4036] }, "properties": { "id": "sagrada", "name": "圣家堂", "type": "宗教", "relation": "", "img": "sagrada.png" } },
    { "type": "Feature", "geometry": { "type": "Point", "coordinates": [-3.6075, 39.4587] }, "properties": { "id": "windmill", "name": "风车", "type": "自然", "relation": "堂吉诃德", "img": "windmill.png" } },
    { "type": "Feature", "geometry": { "type": "Point", "coordinates": [13.3777, 52.5163] }, "properties": { "id": "brandenburg", "name": "勃兰登堡门", "type": "城市地标", "relation": "", "img": "brandenburg.png" } },
    { "type": "Feature", "geometry": { "type": "Point", "coordinates": [37.6231, 55.7525] }, "properties": { "id": "stbasil", "name": "圣瓦西里大教堂", "type": "城市地标", "relation": "战争与和平·罪与罚", "img": "stbasil.png" } },
    { "type": "Feature", "geometry": { "type": "Point", "coordinates": [7.0951, 62.1010] }, "properties": { "id": "geiranger", "name": "盖朗厄尔峡湾", "type": "自然", "relation": "北欧神话·萨迦", "img": "geiranger.png" } },
    { "type": "Feature", "geometry": { "type": "Point", "coordinates": [-74.0445, 40.6892] }, "properties": { "id": "liberty", "name": "自由女神像", "type": "城市地标", "relation": "了不起的盖茨比", "img": "liberty.png" } },
    { "type": "Feature", "geometry": { "type": "Point", "coordinates": [-112.1129, 36.1069] }, "properties": { "id": "grandcanyon", "name": "大峡谷", "type": "自然", "relation": "西部意象", "img": "grandcanyon.png" } },
    { "type": "Feature", "geometry": { "type": "Point", "coordinates": [-82.3589, 23.1390] }, "properties": { "id": "havana", "name": "哈瓦那老城", "type": "城市地标", "relation": "老人与海", "img": "havana.png" } },
    { "type": "Feature", "geometry": { "type": "Point", "coordinates": [-75.5513, 10.3910] }, "properties": { "id": "cartagena", "name": "卡塔赫纳古城", "type": "城市地标", "relation": "霍乱时期的爱情", "img": "cartagena.png" } },
    { "type": "Feature", "geometry": { "type": "Point", "coordinates": [-88.5678, 20.6843] }, "properties": { "id": "chichenitza", "name": "奇琴伊察", "type": "古迹", "relation": "玛雅文明", "img": "chichenitza.png" } },
    { "type": "Feature", "geometry": { "type": "Point", "coordinates": [-72.5450, -13.1631] }, "properties": { "id": "machupicchu", "name": "马丘比丘", "type": "古迹", "relation": "印加文明·聂鲁达", "img": "machupicchu.png" } },
    { "type": "Feature", "geometry": { "type": "Point", "coordinates": [-43.2105, -22.9519] }, "properties": { "id": "christ", "name": "基督像", "type": "城市地标", "relation": "", "img": "christ.png" } },
    { "type": "Feature", "geometry": { "type": "Point", "coordinates": [-109.3497, -27.1127] }, "properties": { "id": "moai", "name": "复活节岛摩艾石像", "type": "遗址", "relation": "神秘文明", "img": "moai.png" } },
    { "type": "Feature", "geometry": { "type": "Point", "coordinates": [151.2153, -33.8568] }, "properties": { "id": "opera", "name": "悉尼歌剧院", "type": "城市地标", "relation": "", "img": "opera.png" } },
    { "type": "Feature", "geometry": { "type": "Point", "coordinates": [131.0369, -25.3444] }, "properties": { "id": "uluru", "name": "乌鲁鲁", "type": "自然", "relation": "原住民·梦创神话", "img": "uluru.png" } }
  ]
}
